{
    "1": [{"stop_id":3757,"stop_name":"Rohini Sec 22 Terminal","lat":28.718025,"lon":77.0638,"arrival_time":"23:16:00","departure_time":"23:16:00"},{"stop_id":3758,"stop_name":"Aggarsain Hospital (Rohini Sec 22)","lat":28.71915,"lon":77.064782,"arrival_time":"23:16:37","departure_time":"23:16:37"},{"stop_id":981,"stop_name":"Rohini Sec-21","lat":28.7188,"lon":77.069767,"arrival_time":"23:18:35","departure_time":"23:18:35"},{"stop_id":406,"stop_name":"Pooth Kalan","lat":28.714257,"lon":77.076933,"arrival_time":"23:22:01","departure_time":"23:22:01"},{"stop_id":984,"stop_name":"Brahm Shakti Hospital","lat":28.712372,"lon":77.080713,"arrival_time":"23:23:43","departure_time":"23:23:43"},{"stop_id":985,"stop_name":"Buddh Vihar","lat":28.706783,"lon":77.084171,"arrival_time":"23:26:33","departure_time":"23:26:33"},{"stop_id":403,"stop_name":"Krishna Vihar","lat":28.704528,"lon":77.086895,"arrival_time":"23:28:00","departure_time":"23:28:00"},{"stop_id":987,"stop_name":"Mangol Puri Y Block","lat":28.702762,"lon":77.089612,"arrival_time":"23:29:19","departure_time":"23:29:19"},{"stop_id":988,"stop_name":"Mangol Pur Khurd","lat":28.700117,"lon":77.094277,"arrival_time":"23:31:30","departure_time":"23:31:30"},{"stop_id":989,"stop_name":"Avantika Xing","lat":28.698384,"lon":77.097225,"arrival_time":"23:32:53","departure_time":"23:32:53"},{"stop_id":990,"stop_name":"Mangolpur Kalan Village","lat":28.695671,"lon":77.101095,"arrival_time":"23:34:49","departure_time":"23:34:49"},{"stop_id":5028,"stop_name":"Mangol Pur School (Kanjhawla Road)","lat":28.6945907891716,"lon":77.1055262837631,"arrival_time":"23:36:36","departure_time":"23:36:36"},{"stop_id":2152,"stop_name":"Mangol Puri B Block (ORR)","lat":28.689596,"lon":77.096796,"arrival_time":"23:40:41","departure_time":"23:40:41"},{"stop_id":1493,"stop_name":"Peera Garhi Metro Station","lat":28.679663,"lon":77.091766,"arrival_time":"23:45:30","departure_time":"23:45:30"},
        {"stop_id":1494,"stop_name":"Udyog Nagar","lat":28.679947,"lon":77.089403,"arrival_time":"23:46:26","departure_time":"23:46:26"},{"stop_id":1495,"stop_name":"Inder Enclave","lat":28.680544,"lon":77.084075,"arrival_time":"23:48:32","departure_time":"23:48:32"},{"stop_id":1496,"stop_name":"Jwala Puri / Nangloi Depot","lat":28.681143,"lon":77.078896,"arrival_time":"23:50:34","departure_time":"23:50:34"},{"stop_id":1497,"stop_name":"Surajmal Stadium","lat":28.681821,"lon":77.07291,"arrival_time":"23:52:56","departure_time":"23:52:56"},{"stop_id":1498,"stop_name":"Sultanpuri Crossing","lat":28.681881,"lon":77.069255,"arrival_time":"23:54:22","departure_time":"23:54:22"},{"stop_id":2153,"stop_name":"Nangloi (Najafgarh Road)","lat":28.681819,"lon":77.067554,"arrival_time":"23:55:02","departure_time":"23:55:02"},{"stop_id":1499,"stop_name":"Nangloi Metro Station","lat":28.681943,"lon":77.064075,"arrival_time":"23:56:23","departure_time":"23:56:23"},
        {"stop_id":1500,"stop_name":"Nangloi JJ Colony Lokesh Cinema","lat":28.682093,"lon":77.058859,"arrival_time":"23:58:26","departure_time":"23:58:26"},{"stop_id":1501,"stop_name":"Qamruddin Nagar Terminal","lat":28.682061,"lon":77.054037,"arrival_time":"24:00:19","departure_time":"24:00:19"},{"stop_id":1898,"stop_name":"Rajdhani Park","lat":28.682077,"lon":77.048164,"arrival_time":"24:02:37","departure_time":"24:02:37"},{"stop_id":1899,"stop_name":"Swarn Park","lat":28.682159,"lon":77.041037,"arrival_time":"24:05:24","departure_time":"24:05:24"},{"stop_id":1900,"stop_name":"Mundka Village Crossing","lat":28.682199,"lon":77.036078,"arrival_time":"24:07:20","departure_time":"24:07:20"},{"stop_id":1901,"stop_name":"Mundka Village Metro Station","lat":28.6822607103131,"lon":77.0300988906192,"arrival_time":"24:09:40","departure_time":"24:09:40"},
        {"stop_id":3167,"stop_name":"Mundka School (Rani Khera Road)","lat":28.683241,"lon":77.02768,"arrival_time":"24:10:43","departure_time":"24:10:43"},{"stop_id":3168,"stop_name":"Friends Enclave Mundka","lat":28.686538,"lon":77.025783,"arrival_time":"24:12:21","departure_time":"24:12:21"},{"stop_id":3169,"stop_name":"Mundka Railway Station","lat":28.691426,"lon":77.027617,"arrival_time":"24:14:38","departure_time":"24:14:38"},{"stop_id":1241,"stop_name":"Rani Khera Depot Crossing","lat":28.698024,"lon":77.027903,"arrival_time":"24:17:34","departure_time":"24:17:34"},{"stop_id":2798,"stop_name":"Rani Khera Depot III","lat":28.6980152166006,"lon":77.0338767165297,"arrival_time":"24:19:54","departure_time":"24:19:54"}],
    "2":[{"stop_id":3369,"stop_name":"Daulat Pur Village","lat":28.546873,"lon":76.963232,"arrival_time":"12:10:00","departure_time":"12:10:00"},{"stop_id":2764,"stop_name":"Sarvodya School Daulat Pur","lat":28.543821,"lon":76.963654,"arrival_time":"12:11:21","departure_time":"12:11:21"},{"stop_id":4637,"stop_name":"Aslatpur Crossing","lat":28.5380457144142,"lon":76.9596574127442,"arrival_time":"12:14:21","departure_time":"12:14:21"},{"stop_id":2765,"stop_name":"Shikar Pur Village","lat":28.529998,"lon":76.955272,"arrival_time":"12:18:19","departure_time":"12:18:19"},{"stop_id":4060,"stop_name":"Ghuman Hera Crossing","lat":28.5278376591176,"lon":76.9511160909899,"arrival_time":"12:20:12","departure_time":"12:20:12"},{"stop_id":4638,"stop_name":"Sub Division Office","lat":28.5308223147287,"lon":76.9342365890251,"arrival_time":"12:26:57","departure_time":"12:26:57"},
        {"stop_id":4639,"stop_name":"Ghuman Hera Village","lat":28.533659,"lon":76.928931,"arrival_time":"12:29:22","departure_time":"12:29:22"},{"stop_id":2169,"stop_name":"Ghuman Hera More / Shikarpur Crossing","lat":28.536825,"lon":76.922412,"arrival_time":"12:32:17","departure_time":"12:32:17"},{"stop_id":2170,"stop_name":"Ghuman Hera Village Main Road","lat":28.5326827,"lon":76.9196563,"arrival_time":"12:34:25","departure_time":"12:34:25"},{"stop_id":4445,"stop_name":"Ghuman Hera DTC Depot Crossing","lat":28.534407,"lon":76.915029,"arrival_time":"12:36:23","departure_time":"12:36:23"},{"stop_id":4446,"stop_name":"Ghuman Hera Depot 1","lat":28.5380082905414,"lon":76.9130136070539,"arrival_time":"12:38:10","departure_time":"12:38:10"}],
    "4":[{"stop_id":368,"stop_name":"Samaspur Khalsa","lat":28.5790789307376,"lon":76.9100964494088,"arrival_time":"13:13:00","departure_time":"13:13:00"},{"stop_id":1735,"stop_name":"Jaffarpur Kalan RTRM Hospital","lat":28.5947182179689,"lon":76.9151624017073,"arrival_time":"13:20:12","departure_time":"13:20:12"},{"stop_id":370,"stop_name":"Rawta Crossing (Dhansa Road)","lat":28.600403776461,"lon":76.9161106637266,"arrival_time":"13:22:45","departure_time":"13:22:45"},
      {"stop_id":371,"stop_name":"Surehra Crossing","lat":28.60448,"lon":76.932397,"arrival_time":"13:29:22","departure_time":"13:29:22"},{"stop_id":372,"stop_name":"Mitraon School","lat":28.607252,"lon":76.939754,"arrival_time":"13:32:30","departure_time":"13:32:30"},{"stop_id":4347,"stop_name":"Mitraon Village","lat":28.6082404777,"lon":76.947375103,"arrival_time":"13:35:31","departure_time":"13:35:31"},{"stop_id":375,"stop_name":"Indra Service Station","lat":28.608858,"lon":76.959974,"arrival_time":"13:40:27","departure_time":"13:40:27"},{"stop_id":376,"stop_name":"Nanak Piyau","lat":28.609487,"lon":76.967851,"arrival_time":"13:43:33","departure_time":"13:43:33"},{"stop_id":377,"stop_name":"Prem Nursary","lat":28.610354,"lon":76.971259,"arrival_time":"13:44:56","departure_time":"13:44:56"},
      {"stop_id":378,"stop_name":"Khera More / Ghuman Hera Crossing","lat":28.6111300229137,"lon":76.9744597383946,"arrival_time":"13:46:14","departure_time":"13:46:14"},{"stop_id":22519,"stop_name":"Nazafgarh Dhansa More","lat":28.612021,"lon":76.978565,"arrival_time":"13:47:53","departure_time":"13:47:53"},{"stop_id":148,"stop_name":"Jharoda Crossing","lat":28.6144807426422,"lon":76.9810620215328,"arrival_time":"13:49:21","departure_time":"13:49:21"},{"stop_id":235,"stop_name":"Dichau Chowk","lat":28.617676,"lon":76.984284,"arrival_time":"13:51:15","departure_time":"13:51:15"},{"stop_id":236,"stop_name":"Udaseen Ashram","lat":28.621747,"lon":76.98804,"arrival_time":"13:53:34","departure_time":"13:53:34"},{"stop_id":237,"stop_name":"Nirmal Vihar","lat":28.625259,"lon":76.992196,"arrival_time":"13:55:50","departure_time":"13:55:50"},{"stop_id":238,"stop_name":"Dichau Kalan Depot","lat":28.629304,"lon":76.997733,"arrival_time":"13:58:38","departure_time":"13:58:38"}],
    "6":[{"stop_id":1585,"stop_name":"Old Delhi Railway Station","lat":28.6603086643348,"lon":77.2283010257233,"arrival_time":"14:08:00","departure_time":"14:08:00"},
      {"stop_id":957,"stop_name":"Red Fort","lat":28.65808,"lon":77.236946,"arrival_time":"14:11:31","departure_time":"14:11:31"},{"stop_id":958,"stop_name":"Jama Masjid","lat":28.650847,"lon":77.238458,"arrival_time":"14:14:46","departure_time":"14:14:46"},{"stop_id":959,"stop_name":"Darya Ganj Golcha Cinema","lat":28.644152,"lon":77.240425,"arrival_time":"14:17:50","departure_time":"14:17:50"},{"stop_id":960,"stop_name":"Delhi Gate (JLN Marg)","lat":28.639959,"lon":77.238071,"arrival_time":"14:19:55","departure_time":"14:19:55"},{"stop_id":961,"stop_name":"LNJP Hospital","lat":28.6401,"lon":77.234817,"arrival_time":"14:21:11","departure_time":"14:21:11"},{"stop_id":962,"stop_name":"Zakir Husain College","lat":28.641133,"lon":77.229676,"arrival_time":"14:23:15","departure_time":"14:23:15"},{"stop_id":963,"stop_name":"JLN Marg","lat":28.6421,"lon":77.22785,"arrival_time":"14:24:05","departure_time":"14:24:05"},
      {"stop_id":1035,"stop_name":"PS Kamla Market","lat":28.643042,"lon":77.226021,"arrival_time":"14:24:55","departure_time":"14:24:55"},{"stop_id":1036,"stop_name":"Ajmeri Gate / Kamla Market","lat":28.644083,"lon":77.22405,"arrival_time":"14:25:49","departure_time":"14:25:49"},{"stop_id":1641,"stop_name":"Dispensary Paharganj","lat":28.6449,"lon":77.2135,"arrival_time":"14:29:57","departure_time":"14:29:57"},{"stop_id":1642,"stop_name":"Police Station Paharganj","lat":28.646088,"lon":77.208137,"arrival_time":"14:32:07","departure_time":"14:32:07"},{"stop_id":2709,"stop_name":"Rani Jhansi Road Jhande Walan","lat":28.6456,"lon":77.205,"arrival_time":"14:33:22","departure_time":"14:33:22"},{"stop_id":520,"stop_name":"Meghdoot Bhawan","lat":28.643667,"lon":77.201033,"arrival_time":"14:35:08","departure_time":"14:35:08"},
      {"stop_id":2048,"stop_name":"Karol Bagh Gurgaon Stand","lat":28.64376,"lon":77.19701,"arrival_time":"14:36:42","departure_time":"14:36:42"},{"stop_id":2049,"stop_name":"Ravinder Rangshala","lat":28.640833,"lon":77.19515,"arrival_time":"14:38:12","departure_time":"14:38:12"},{"stop_id":2050,"stop_name":"CPRTI","lat":28.6374333333333,"lon":77.1927833333333,"arrival_time":"14:39:58","departure_time":"14:39:58"},{"stop_id":2051,"stop_name":"Ridge Road","lat":28.6326953,"lon":77.1890118,"arrival_time":"14:42:32","departure_time":"14:42:32"},{"stop_id":2052,"stop_name":"R Block Rajinder Nagar","lat":28.6234,"lon":77.1803166666667,"arrival_time":"14:47:52","departure_time":"14:47:52"},{"stop_id":2053,"stop_name":"Buddha Jayanti Park","lat":28.615091,"lon":77.175218,"arrival_time":"14:52:04","departure_time":"14:52:04"},
      {"stop_id":2054,"stop_name":"APS School Dhaula Kuan","lat":28.601533,"lon":77.168417,"arrival_time":"14:58:38","departure_time":"14:58:38"},{"stop_id":884,"stop_name":"Dhaula Kuan","lat":28.592721,"lon":77.163492,"arrival_time":"15:02:59","departure_time":"15:02:59"},{"stop_id":1687,"stop_name":"RR Hospital / Maharana Pratap Chowk","lat":28.59015,"lon":77.15675,"arrival_time":"15:05:52","departure_time":"15:05:52"},{"stop_id":1688,"stop_name":"Air Force HQ / Subroto Park","lat":28.583678,"lon":77.146096,"arrival_time":"15:10:55","departure_time":"15:10:55"},{"stop_id":1689,"stop_name":"APS Colony/ Jharera Gaon","lat":28.579433,"lon":77.145,"arrival_time":"15:12:51","departure_time":"15:12:51"},{"stop_id":2413,"stop_name":"APS Colony","lat":28.574431,"lon":77.142057,"arrival_time":"15:15:21","departure_time":"15:15:21"},
      {"stop_id":4379,"stop_name":"Shankar Vihar / National Highway 8","lat":28.566514,"lon":77.134394,"arrival_time":"15:19:58","departure_time":"15:19:58"},{"stop_id":1691,"stop_name":"Mahipal Pur Crossing NH-8","lat":28.545775,"lon":77.123056,"arrival_time":"15:30:11","departure_time":"15:30:11"},{"stop_id":1692,"stop_name":"Rang Puri (NH-8)","lat":28.541953,"lon":77.118268,"arrival_time":"15:32:42","departure_time":"15:32:42"},{"stop_id":1693,"stop_name":"Shiv Murti","lat":28.535769,"lon":77.112611,"arrival_time":"15:36:14","departure_time":"15:36:14"},{"stop_id":1694,"stop_name":"Rajokari Crossing NH-8","lat":28.523139,"lon":77.099001,"arrival_time":"15:43:58","departure_time":"15:43:58"},{"stop_id":1695,"stop_name":"Shiv Murti / Dwarka More","lat":28.534898,"lon":77.108437,"arrival_time":"15:50:21","departure_time":"15:50:21"},
      {"stop_id":2067,"stop_name":"Uppal Hotel","lat":28.536237,"lon":77.102112,"arrival_time":"15:52:54","departure_time":"15:52:54"},{"stop_id":1696,"stop_name":"Samalkha Crossing","lat":28.537322,"lon":77.092137,"arrival_time":"15:56:50","departure_time":"15:56:50"},{"stop_id":1697,"stop_name":"Samalkha Village","lat":28.534542,"lon":77.090534,"arrival_time":"15:58:13","departure_time":"15:58:13"},{"stop_id":2257,"stop_name":"Kapashera More (Najafgarh Road)","lat":28.530644,"lon":77.086237,"arrival_time":"16:00:37","departure_time":"16:00:37"},{"stop_id":2258,"stop_name":"Kapashera Village Bijwasan Road","lat":28.52759,"lon":77.076229,"arrival_time":"16:04:46","departure_time":"16:04:46"},{"stop_id":2259,"stop_name":"Shri Golok Dham Bijwasan School","lat":28.533565,"lon":77.059594,"arrival_time":"16:11:48","departure_time":"16:11:48"},
      {"stop_id":2414,"stop_name":"Palam Vihar Crossing","lat":28.532531,"lon":77.052948,"arrival_time":"16:14:27","departure_time":"16:14:27"},{"stop_id":2260,"stop_name":"Bijwasan Railway Station","lat":28.53551,"lon":77.043612,"arrival_time":"16:18:20","departure_time":"16:18:20"},{"stop_id":2022,"stop_name":"Bamnoli Crossing","lat":28.539219,"lon":77.02981,"arrival_time":"16:23:59","departure_time":"16:23:59"},{"stop_id":2023,"stop_name":"Bamnoli Power Station","lat":28.5421,"lon":77.017939,"arrival_time":"16:28:48","departure_time":"16:28:48"},{"stop_id":2024,"stop_name":"Toll Tax Post","lat":28.543484,"lon":77.012062,"arrival_time":"16:31:11","departure_time":"16:31:11"},{"stop_id":2025,"stop_name":"BSF Campus Chhawla","lat":28.547917,"lon":77.009152,"arrival_time":"16:33:27","departure_time":"16:33:27"},
      {"stop_id":2026,"stop_name":"BSF Camp Chhawla","lat":28.554271,"lon":77.006304,"arrival_time":"16:36:29","departure_time":"16:36:29"},{"stop_id":2027,"stop_name":"Sumesh Vihar","lat":28.557851,"lon":77.004374,"arrival_time":"16:38:14","departure_time":"16:38:14"},{"stop_id":2028,"stop_name":"Chhawla Village","lat":28.561234,"lon":77.002151,"arrival_time":"16:39:58","departure_time":"16:39:58"},{"stop_id":2029,"stop_name":"Chhawla School","lat":28.566798,"lon":77.000183,"arrival_time":"16:42:33","departure_time":"16:42:33"},{"stop_id":2030,"stop_name":"Rewla Taj Pur More","lat":28.578209,"lon":76.996491,"arrival_time":"16:47:49","departure_time":"16:47:49"},{"stop_id":1967,"stop_name":"Jhatikara Crossing","lat":28.58579,"lon":76.995161,"arrival_time":"16:51:13","departure_time":"16:51:13"},
      {"stop_id":228,"stop_name":"Goela Dairy Crossing","lat":28.591721,"lon":76.992877,"arrival_time":"16:54:00","departure_time":"16:54:00"},{"stop_id":229,"stop_name":"Deenpur Village","lat":28.593389,"lon":76.991941,"arrival_time":"16:54:49","departure_time":"16:54:49"},{"stop_id":230,"stop_name":"Durga Vihar","lat":28.596621,"lon":76.990298,"arrival_time":"16:56:23","departure_time":"16:56:23"},{"stop_id":231,"stop_name":"BDO Office","lat":28.600768,"lon":76.988661,"arrival_time":"16:58:20","departure_time":"16:58:20"},{"stop_id":232,"stop_name":"Chhawla Stand Najafgarh","lat":28.60799,"lon":76.985536,"arrival_time":"17:01:46","departure_time":"17:01:46"},{"stop_id":233,"stop_name":"Police Station NajafGarh","lat":28.6103186141233,"lon":76.9813376578563,"arrival_time":"17:03:42","departure_time":"17:03:42"},
      {"stop_id":2031,"stop_name":"Najafgarh Dhansa More","lat":28.611458,"lon":76.979153,"arrival_time":"17:04:42","departure_time":"17:04:42"},{"stop_id":379,"stop_name":"Jharoda Crossing Jharoda Road","lat":28.6137657049756,"lon":76.9793626157992,"arrival_time":"17:05:43","departure_time":"17:05:43"},{"stop_id":380,"stop_name":"NajafGarh Terminal","lat":28.6148311619155,"lon":76.9772491148408,"arrival_time":"17:06:40","departure_time":"17:06:40"}
    ]
}
